City,Cloudiness,Country,Date,Humidity,Lat,Long,Max Temp,Wind Speed
beloha,0,MG,1544041027,81,-25.17,45.06,73.77,8.19
jamestown,0,AU,1544040305,36,-33.21,138.6,69.45,7.63
severo-kurilsk,80,RU,1544040579,100,50.68,156.12,29.4,18.59
codrington,68,AU,1544040000,82,-28.95,153.24,71.6,5.95
koumac,92,NC,1544040580,100,-20.56,164.28,73.37,7.63
hobart,0,AU,1544040000,77,-42.88,147.33,59.0,10.29
mingaora,48,PK,1544041028,80,34.78,72.36,38.13,1.81
rikitea,36,PF,1544041029,100,-23.12,-134.97,74.94,0.81
husavik,32,CA,1544041029,88,50.56,-96.99,14.55,15.79
cape town,0,ZA,1544040000,77,-33.93,18.42,66.2,6.93
vaini,0,IN,1544041030,96,15.34,74.49,65.81,2.48
kaiu,40,EE,1544039400,80,59.01,25.06,37.4,14.99
cabedelo,20,BR,1544036400,70,-6.97,-34.84,84.2,12.75
butaritari,44,KI,1544040583,100,3.07,172.79,85.2,9.98
oistins,20,BB,1544036400,62,13.07,-59.53,84.2,17.22
ponta do sol,44,BR,1544040584,73,-20.63,-46.0,79.4,2.59
torbay,90,CA,1544036400,68,47.66,-52.73,24.8,20.8
punta arenas,75,CL,1544036400,71,-53.16,-70.91,55.4,16.11
hilo,1,US,1544039580,58,19.71,-155.08,78.98,16.46
castro,0,CL,1544036400,43,-42.48,-73.76,71.6,11.41
tongren,100,CN,1544040585,100,27.72,109.18,38.94,8.19
tuktoyaktuk,90,CA,1544036400,84,69.44,-133.03,8.6,6.93
isangel,92,VU,1544040586,100,-19.55,169.27,77.28,14.45
kloulklubed,75,PW,1544035800,83,7.04,134.26,80.6,6.93
bredasdorp,92,ZA,1544036400,72,-34.53,20.04,68.0,5.82
san quintin,0,PH,1544040587,83,17.54,120.52,67.25,2.82
vao,0,EE,1544040550,87,59.1,26.19,34.53,12.1
boa vista,75,BR,1544036400,43,2.82,-60.67,89.6,17.22
half moon bay,40,US,1544039760,77,37.46,-122.43,57.2,5.82
ribeira grande,20,PT,1544038200,72,38.52,-28.7,62.6,11.41
chuy,0,UY,1544040589,75,-33.69,-53.46,67.74,19.04
busselton,92,AU,1544040589,100,-33.64,115.35,54.6,5.95
north bend,1,US,1544039760,56,43.41,-124.22,51.08,4.7
san cristobal,40,EC,1544036400,40,-0.39,-78.55,71.6,19.46
kurchum,0,KZ,1544040591,100,48.57,83.65,-10.02,3.27
aksu,0,KZ,1544038200,83,52.04,76.93,-4.01,8.95
chokurdakh,32,RU,1544040501,37,70.62,147.9,-24.2,3.38
kieta,20,PG,1544040592,100,-6.22,155.63,80.07,4.16
namibe,0,AO,1544040592,100,-15.19,12.15,70.67,3.49
ahuimanu,75,US,1544036220,59,21.44,-157.84,78.08,10.29
kruisfontein,0,ZA,1544041038,84,-34.0,24.73,64.59,7.74
emerald,32,AU,1544036400,68,-23.53,148.16,71.6,9.17
fortuna,0,ES,1544038200,87,38.18,-1.13,55.4,2.48
kapaa,40,US,1544038500,69,22.08,-159.32,78.98,3.36
saint george,20,GR,1544035800,45,39.45,22.34,50.0,4.7
atuona,92,PF,1544040503,100,-9.8,-139.03,80.48,17.92
yellowknife,90,CA,1544037420,84,62.45,-114.38,1.4,9.19
campo de criptana,0,ES,1544040596,80,39.41,-3.13,37.68,2.71
puerto ayora,90,EC,1544036400,57,-0.74,-90.35,78.8,18.34
hermanus,56,ZA,1544041075,94,-34.42,19.24,57.48,2.04
pevek,48,RU,1544041087,100,69.7,170.27,-11.06,8.75
trairi,76,BR,1544040553,100,-3.28,-39.27,81.56,4.5
la asuncion,75,EC,1544036400,48,-1.64,-78.74,69.8,6.93
victor harbor,0,AU,1544038200,25,-35.55,138.62,75.2,10.29
carnarvon,80,ZA,1544040712,22,-30.97,22.13,61.08,3.04
ambam,0,NG,1544040713,28,9.52,8.32,71.57,10.09
albany,90,US,1544039880,59,42.65,-73.75,33.8,2.48
coahuayana,32,MX,1544040713,45,18.62,-100.35,83.4,2.59
ola,48,RU,1544040713,98,59.58,151.3,29.4,44.31
tasiilaq,90,GL,1544039400,58,65.61,-37.64,24.8,10.29
rawson,36,AR,1544040714,50,-43.3,-65.11,58.29,11.43
port alfred,0,ZA,1544040714,86,-33.59,26.89,70.8,18.25
ushuaia,40,AR,1544040000,40,-54.81,-68.31,53.6,17.22
stromness,90,CA,1544039640,69,42.87,-79.55,33.8,9.17
nikolskoye,40,RU,1544040000,86,59.7,30.79,33.8,13.42
mehamn,40,NO,1544039400,79,71.03,27.85,32.0,6.93
doka,0,SD,1544040716,21,13.52,35.76,72.2,11.99
breytovo,92,RU,1544040716,98,58.3,37.86,33.41,12.44
east london,8,ZA,1544040493,100,-33.02,27.91,71.57,21.27
lebu,0,ET,1544036400,39,8.96,38.73,62.6,6.93
mataura,92,NZ,1544041091,69,-46.19,168.86,50.64,17.69
upernavik,64,GL,1544040503,100,72.79,-56.15,21.48,5.61
port-gentil,40,GA,1544036400,88,-0.72,8.78,82.4,9.17
raudeberg,75,NO,1544039400,100,61.99,5.14,33.8,6.93
new norfolk,0,AU,1544038200,76,-42.78,147.06,57.2,9.17
port lincoln,24,AU,1544040718,55,-34.72,135.86,73.32,17.81
saint-philippe,90,CA,1544038500,86,45.36,-73.48,26.06,1.59
sobolevo,92,RU,1544040719,94,54.43,31.9,31.47,6.4
saldanha,0,PT,1544040719,90,41.42,-6.55,33.68,2.82
bluff,36,AU,1544041093,63,-23.58,149.07,71.25,15.68
honiara,36,SB,1544040619,94,-9.43,159.96,78.18,3.04
abashiri,0,JP,1544040720,66,44.01,144.25,22.7,8.63
taoudenni,0,ML,1544040720,27,22.68,-3.98,64.95,11.21
norman wells,75,CA,1544036400,92,65.28,-126.83,10.4,4.7
sola,20,NO,1544039400,100,58.89,5.65,39.2,8.05
provideniya,76,RU,1544038200,62,64.42,-173.23,19.4,15.66
maningrida,0,AU,1544040721,85,-12.05,134.23,82.82,8.52
muncar,24,ID,1544040722,100,-8.43,114.34,78.63,2.82
barcelona,20,ES,1544038200,93,41.38,2.18,57.2,6.93
le port,0,FR,1544040723,80,42.87,1.37,25.13,1.7
ulladulla,75,AU,1544036400,100,-35.36,150.48,55.4,3.36
huancabamba,8,PE,1544040724,19,-5.24,-79.45,77.78,0.81
anantapur,92,IN,1544040724,99,14.68,77.61,70.17,5.73
tiksi,12,RU,1544040724,38,71.64,128.87,-25.05,2.59
martil,40,MA,1544038200,87,35.62,-5.28,62.6,2.24
masyaf,75,SY,1544040000,67,35.06,36.34,59.0,9.17
suruc,90,TR,1544039400,100,36.98,38.42,48.2,12.75
mayo,40,CA,1544036400,76,63.59,-135.9,-11.21,3.38
hailar,0,CN,1544040727,38,49.2,119.7,-26.4,6.17
thompson,20,CA,1544036400,75,55.74,-97.86,-13.01,10.29
kathu,24,ZA,1544040728,51,-27.7,23.05,67.92,2.82
darovskoy,76,RU,1544040728,92,58.77,47.96,22.25,8.97
auki,0,NG,1544040728,26,12.18,6.51,71.03,9.98
avarua,40,CK,1544040000,58,-21.21,-159.78,82.4,11.41
kimbe,56,PG,1544040728,100,-5.56,150.15,78.41,2.26
ballina,90,IE,1544036400,100,54.11,-9.15,44.6,5.82
faya,0,SA,1544036400,87,18.39,42.45,59.0,4.7
mount isa,0,AU,1544040000,38,-20.73,139.49,73.4,1.12
ixtapa,20,MX,1544039040,74,20.71,-105.21,82.4,8.05
viedma,36,AR,1544040773,56,-40.81,-62.99,60.09,17.69
saskylakh,80,RU,1544040773,79,71.97,114.09,-4.08,10.2
claresholm,90,CA,1544039460,78,50.02,-113.58,15.8,11.41
campos sales,100,BR,1544040774,99,-7.07,-40.37,67.97,4.61
jhang,24,PK,1544040000,81,33.67,72.7,50.0,3.71
maldonado,40,UY,1544036400,60,-34.91,-54.96,68.0,16.11
opuwo,0,NA,1544040775,27,-18.06,13.84,71.88,6.62
seoul,90,KR,1544040000,87,37.57,126.98,33.8,1.12
yulara,0,AU,1544040000,83,-25.24,130.99,71.6,13.87
qaanaaq,80,GL,1544040776,100,77.48,-69.36,3.93,12.21
hasaki,75,JP,1544040000,71,35.73,140.83,57.2,9.17
barrow,92,AR,1544040776,60,-38.31,-60.23,61.89,14.79
kahului,20,US,1544036160,54,20.89,-156.47,80.06,13.87
khatanga,80,RU,1544040777,73,71.98,102.47,-2.15,18.25
jabinyanah,20,TN,1544036400,67,35.03,10.91,59.0,2.24
sitka,0,US,1544040778,45,37.17,-99.65,50.87,21.72
bethel,90,US,1544039760,95,60.79,-161.76,33.08,5.82
guiratinga,64,BR,1544040533,45,-16.35,-53.76,90.15,5.73
hithadhoo,88,MV,1544040779,100,-0.6,73.08,79.22,5.39
bedford,64,GB,1544039760,100,52.14,-0.47,53.6,6.93
mopipi,8,BW,1544041152,71,-21.2,24.86,71.7,2.93
paamiut,80,GL,1544040779,81,61.99,-49.67,35.7,4.27
matara,0,PE,1544036400,39,-13.74,-72.9,66.2,5.82
mar del plata,0,AR,1544040780,47,-46.43,-67.52,62.79,9.64
kushima,48,JP,1544040780,100,31.5,131.29,59.51,4.27
surt,92,LY,1544040781,93,31.21,16.59,66.8,15.01
gariaband,88,IN,1544040781,91,20.63,82.06,61.58,2.26
nemuro,32,JP,1544040781,100,43.32,145.57,35.97,23.06
kodiak,1,US,1544039700,35,39.95,-94.76,41.36,9.17
deputatskiy,8,RU,1544041154,0,69.3,139.9,-44.58,2.71
nanakuli,1,US,1544039820,63,21.39,-158.15,80.06,12.75
wilmington,40,US,1544039760,86,39.75,-75.55,35.24,5.82
tungor,8,RU,1544040783,100,53.39,142.95,-4.67,31.23
tual,8,ID,1544040783,100,-5.67,132.75,84.84,9.86
matagami,0,NG,1544040783,28,9.67,8.4,71.57,10.09
kysyl-syr,12,RU,1544040783,55,63.9,122.77,-32.12,6.17
port hardy,20,CA,1544036400,77,50.7,-127.42,33.8,2.24
pisco,75,PE,1544036400,30,-13.71,-76.2,71.6,6.93
salalah,40,OM,1544035800,74,17.01,54.1,78.8,4.7
requena,40,ES,1544038200,100,39.49,-1.1,53.6,4.7
pasighat,80,IN,1544040863,66,28.06,95.33,56.63,1.59
nueva imperial,0,CL,1544040000,57,-38.75,-72.95,75.2,13.87
ahipara,92,NZ,1544040787,100,-35.17,173.16,56.36,16.46
necochea,92,AR,1544040787,79,-38.55,-58.74,59.37,14.0
telsiai,0,LT,1544040787,85,55.98,22.25,25.22,6.17
margate,0,AU,1544040000,77,-43.03,147.26,59.0,10.29
clyde river,75,CA,1544036400,75,70.47,-68.59,-14.81,4.7
mianyang,76,CN,1544040789,71,31.46,104.75,47.13,7.18
beohari,0,IN,1544041158,82,24.05,81.38,49.02,2.82
mareeba,75,AU,1544040000,83,-16.99,145.42,77.0,8.05
lafiagi,0,NG,1544041159,34,8.85,5.42,77.55,8.63
cap malheureux,40,MU,1544040000,88,-19.98,57.61,77.0,4.7
vila franca do campo,20,PT,1544038200,82,37.72,-25.43,60.8,4.7
namatanai,64,PG,1544041207,99,-3.66,152.44,84.57,4.94
chaoyang,80,CN,1544041208,48,41.58,120.44,15.41,16.91
kaitangata,92,NZ,1544040834,74,-46.28,169.85,49.25,22.5
souillac,90,FR,1544038200,93,45.6,-0.6,55.4,12.75
miquelon,75,PM,1544036400,63,47.1,-56.38,26.6,25.28
capaccio,0,IT,1544036100,81,40.42,15.08,42.8,3.36
pinsk,68,BY,1544040835,87,52.11,26.1,31.47,11.43
ust-nera,76,RU,1544040835,74,64.57,143.24,-26.9,2.15
talnakh,76,RU,1544040836,64,69.49,88.39,-8.0,15.79
georgetown,40,GY,1544036400,70,6.8,-58.16,86.0,9.17
bulgan,0,MN,1544040836,43,48.81,103.53,-29.87,2.71
sinnamary,92,GF,1544040837,98,5.38,-52.96,78.86,7.63
hofn,90,IS,1544036400,80,64.25,-15.21,33.8,9.17
aloleng,8,PH,1544040837,99,16.13,119.78,78.27,7.4
richards bay,76,ZA,1544040838,97,-28.77,32.06,70.53,4.83
sao filipe,8,CV,1544040838,98,14.9,-24.5,74.67,12.77
whitehorse,75,CA,1544036400,92,60.72,-135.06,21.2,11.41
healesville,0,AU,1544038200,82,-37.65,145.52,57.2,17.22
stanovoye,92,RU,1544040839,96,52.76,38.34,25.58,5.28
kerema,80,PG,1544040839,70,-7.96,145.78,74.36,2.15
rolla,1,US,1544036160,48,37.95,-91.77,44.96,11.41
tiznit,0,MA,1544040840,88,29.7,-9.73,60.54,2.15
pitimbu,20,BR,1544040000,74,-7.47,-34.81,82.4,10.29
luderitz,0,NA,1544040840,84,-26.65,15.16,58.16,9.42
padang,92,ID,1544040841,100,-0.92,100.36,75.8,2.26
morros,92,BR,1544040841,93,-2.87,-44.04,77.6,1.25
tabory,68,PL,1544040842,93,53.89,19.53,32.87,6.73
arlit,0,NE,1544040842,33,18.74,7.39,63.6,10.42
nyimba,76,ZM,1544040843,91,-14.56,30.81,68.64,2.93
safranbolu,92,TR,1544040843,100,41.25,32.69,42.99,2.15
kayakent,90,RU,1544040000,93,42.39,47.9,44.6,8.95
ocos,20,GT,1544040000,49,14.51,-92.19,91.4,6.93
san andres,8,PH,1544040845,100,13.32,122.68,81.15,17.02
cayenne,92,GF,1544040000,83,4.94,-52.33,80.6,4.7
tando muhammad khan,0,PK,1544040845,77,25.12,68.53,56.04,3.71
pangnirtung,75,CA,1544036400,77,66.15,-65.72,-0.41,4.7
agadir,0,MA,1544038200,77,30.42,-9.58,59.0,2.24
tautira,40,PF,1544040000,62,-17.73,-149.15,87.8,13.87
ngunguru,76,NZ,1544040847,100,-35.62,174.5,60.5,17.47
yarmolyntsi,88,UA,1544040847,92,49.19,26.84,30.39,10.98
tessalit,0,ML,1544040847,27,20.2,1.01,64.59,11.21
ilhabela,0,BR,1544040848,98,-23.78,-45.36,75.08,6.62
dalbandin,32,PK,1544040848,89,28.9,64.41,46.5,3.15
dikson,92,RU,1544040848,100,73.51,80.55,7.22,25.19
lexington,90,US,1544039700,58,38.05,-84.5,33.08,9.17
rach gia,24,VN,1544038200,94,10.02,105.08,75.2,6.73
alofi,40,NU,1544040000,66,-19.06,-169.92,84.2,14.99
ilulissat,20,GL,1544039400,48,69.22,-51.1,21.2,18.34
kijang,75,KR,1544040000,70,35.24,129.21,46.4,9.17
yelets,92,RU,1544040892,96,52.61,38.49,25.58,5.28
thunder bay,90,CA,1544036400,73,48.41,-89.26,24.8,8.05
beboto,0,TD,1544040893,32,8.27,16.94,78.32,10.2
ostrovnoy,92,RU,1544040893,97,68.05,39.51,29.58,17.02
itarema,80,BR,1544040893,97,-2.92,-39.92,77.15,3.04
taltal,0,CL,1544040893,54,-25.41,-70.49,65.94,3.38
martinsville,75,US,1544039580,36,36.69,-79.87,42.98,10.29
dunedin,32,NZ,1544040594,82,-45.87,170.5,46.73,19.26
ambulu,20,ID,1544040894,100,-8.35,113.61,76.52,3.49
komsomolskiy,80,RU,1544040894,90,67.55,63.78,12.71,6.17
mineiros,20,BR,1544040895,84,-17.57,-52.55,74.4,2.04
kavieng,0,PG,1544040895,100,-2.57,150.8,84.93,7.96
labuhan,88,ID,1544040895,99,-2.54,115.51,72.42,2.15
waingapu,88,ID,1544040896,100,-9.65,120.26,74.81,2.71
santiago,75,CL,1544036400,33,-33.44,-70.65,80.6,4.7
mazabuka,48,ZM,1544040897,94,-15.86,27.75,65.49,3.83
jabonga,68,PH,1544040897,100,9.34,125.52,77.28,6.96
soyo,32,AO,1544040897,82,-6.13,12.37,79.98,6.51
esperance,20,TT,1544040000,70,10.24,-61.45,84.2,13.87
havre-saint-pierre,20,CA,1544036400,66,50.23,-63.6,14.0,11.41
prince rupert,75,CA,1544038080,100,54.32,-130.32,32.0,4.7
klaksvik,64,FO,1544039400,100,62.23,-6.59,37.4,16.11
lukovetskiy,90,RU,1544040000,92,64.29,41.92,30.2,13.42
airai,0,TL,1544040899,88,-8.93,125.41,67.38,1.14
george,20,NG,1544036400,83,6.63,3.35,84.2,3.36
avera,1,US,1544039700,30,33.19,-82.53,53.06,16.11
urkut,0,HU,1544039100,100,47.09,17.64,30.2,2.24
taybad,36,IR,1544040900,91,34.74,60.78,32.28,2.37
guerrero negro,76,MX,1544040900,67,27.97,-114.04,68.33,7.18
manadhoo,36,MV,1544040901,100,5.77,73.38,82.14,5.28
cardoso,0,BR,1544040629,62,-20.08,-49.91,87.41,3.15
fairbanks,90,US,1544039880,95,64.84,-147.72,21.02,5.39
alzamay,48,RU,1544040902,76,55.55,98.67,-17.4,4.38
arantangi,48,IN,1544040903,100,10.17,78.99,76.52,7.63
cerrito,75,CO,1544040000,73,6.84,-72.7,75.2,8.05
leningradskiy,56,RU,1544040904,100,69.38,178.42,-4.94,28.1
arraial do cabo,75,BR,1544040000,52,-22.97,-42.02,91.4,6.93
mahebourg,40,MU,1544040000,88,-20.41,57.7,77.0,4.7
montrose,0,AU,1544038200,82,-37.81,145.34,57.2,17.22
talcahuano,0,CL,1544040000,60,-36.72,-73.12,71.6,8.05
vilhena,75,BR,1544036400,74,-12.74,-60.15,80.6,8.05
katsuura,8,JP,1544040907,99,33.93,134.5,47.27,3.38
teguise,0,ES,1544038200,46,29.06,-13.56,71.6,9.17
biak,20,ID,1544040907,100,-0.91,122.88,77.87,1.59
patnos,12,TR,1544040908,77,39.23,42.86,22.16,1.14
manggar,76,ID,1544040908,100,-2.88,108.27,77.15,2.59
natal,40,BR,1544040000,74,-5.81,-35.21,84.2,12.75
lompoc,90,US,1544039760,54,34.64,-120.46,66.02,10.29
ostersund,40,SE,1544039400,80,63.18,14.64,30.2,17.22
batemans bay,0,AU,1544041279,92,-35.71,150.18,63.56,5.17
catuday,8,PH,1544041280,99,16.29,119.81,78.27,7.4
hamilton,75,BM,1544039700,73,32.3,-64.78,73.4,5.82
khash,44,IR,1544041327,65,28.22,61.21,35.52,2.37
belmopan,40,BZ,1544040000,55,17.25,-88.77,89.6,6.93
narsaq,88,GL,1544041327,82,60.91,-46.05,29.81,18.81
constitucion,75,MX,1544038860,31,23.99,-104.67,73.4,9.17
port elizabeth,90,US,1544039760,92,39.31,-74.98,35.24,9.17
tarakan,64,ID,1544041328,100,3.3,117.63,76.74,3.83
kabanjahe,40,ID,1544036400,94,3.1,98.49,78.8,3.36
bandarbeyla,92,SO,1544041329,100,9.49,50.81,79.58,15.68
tazovskiy,80,RU,1544041144,74,67.47,78.7,0.92,18.37
phangnga,20,TH,1544040000,88,8.45,98.53,77.0,2.71
neiafu,75,TO,1544040000,74,-18.65,-173.98,84.2,10.29
bongandanga,8,CD,1544041330,82,1.51,21.07,76.92,3.6
myitkyina,56,MM,1544041330,91,25.38,97.4,59.42,2.37
simoes,92,BR,1544041331,98,-7.6,-40.82,67.29,2.93
darhan,20,MN,1544041331,48,49.49,105.92,-31.13,3.04
ancud,0,CL,1544040000,40,-41.87,-73.83,71.6,10.29
atar,0,MR,1544041332,24,20.52,-13.05,62.03,5.28
naryan-mar,76,RU,1544041332,90,67.67,53.09,20.81,12.1
victoria,75,BN,1544040000,83,5.28,115.24,80.6,2.24
tateyama,76,JP,1544041333,100,36.66,137.31,33.99,2.37
porto novo,20,BR,1544040000,44,-23.68,-45.44,80.6,9.17
whitstable,75,GB,1544039400,93,51.36,1.03,55.4,10.29
tongchuan,44,CN,1544040000,92,34.9,108.95,23.0,2.24
karratha,0,AU,1544041336,88,-20.74,116.85,66.3,3.6
singkang,75,MY,1544036400,94,2.1,102.8,77.0,3.36
bonfim,40,BR,1544036400,38,-20.33,-44.24,87.8,5.82
dakar,0,SN,1544040000,88,14.69,-17.45,77.0,6.93
nome,1,US,1544040900,35,30.04,-94.42,60.08,3.36
kavaratti,24,IN,1544041337,100,10.57,72.64,83.04,9.08
nabire,32,ID,1544041338,94,-3.36,135.5,68.51,2.48
redlands,90,US,1544039700,81,34.06,-117.19,55.4,1.92
grand gaube,40,MU,1544040000,88,-20.01,57.66,77.0,4.7
dargaville,80,NZ,1544041339,81,-35.94,173.86,61.44,18.48
mingshui,88,CN,1544041339,97,22.81,109.89,69.5,2.26
ust-kut,48,RU,1544041339,40,56.78,105.75,-26.81,3.71
kourou,92,GF,1544040000,83,5.16,-52.64,80.6,4.7
choix,68,MX,1544041340,64,26.71,-108.33,70.31,2.04
potiskum,0,NG,1544041340,30,11.71,11.08,70.08,11.54
acapulco,40,MX,1544038920,70,16.86,-99.88,86.0,9.17
bavly,48,RU,1544041341,78,54.4,53.24,8.93,3.15
caravelas,80,BR,1544041341,100,-17.73,-39.27,79.62,13.22
agadez,0,NE,1544041342,32,16.97,7.99,66.12,10.98
ponta delgada,20,PT,1544038200,82,37.73,-25.67,60.8,4.7
xai-xai,36,MZ,1544041342,90,-25.04,33.64,78.95,13.22
bubaque,20,GW,1544041139,96,11.28,-15.83,83.04,4.72
mtambile,20,TZ,1544041343,99,-5.38,39.7,81.65,7.96
cabras,92,CO,1544041343,98,5.5,-75.6,59.78,1.7
livingstone,8,ZW,1544041344,73,-17.85,25.86,71.48,3.71
fort nelson,75,CA,1544036400,84,58.81,-122.69,8.6,10.29
oga,0,NG,1544041344,58,8.18,5.65,72.38,3.27
haines junction,24,CA,1544041387,77,60.75,-137.51,-2.87,2.04
riberalta,90,BO,1544040000,94,-11.0,-66.08,77.0,1.81
piranshahr,92,IR,1544041388,98,36.7,45.14,39.84,1.7
buraydah,75,SA,1544036400,100,26.33,43.97,62.6,3.36
northam,40,GB,1544039400,93,51.04,-4.21,51.8,3.36
goderich,56,CA,1544041203,85,43.74,-81.71,31.52,11.21
ayan,92,TR,1544041389,100,40.67,33.6,36.38,2.26
berdigestyakh,48,RU,1544041389,48,62.1,126.7,-29.69,7.74
trenggalek,88,ID,1544041389,99,-8.05,111.71,71.66,2.26
xiuyan,88,CN,1544041389,62,40.29,123.27,15.86,2.48
tandil,88,AR,1544041390,50,-37.33,-59.14,66.98,11.21
oliveira dos brejinhos,92,BR,1544041390,100,-12.32,-42.89,67.88,3.71
barcelos,75,PT,1544038200,77,41.53,-8.62,59.0,4.7
krasyliv,88,UA,1544041391,93,49.66,26.97,31.74,11.21
monterey,90,US,1544039700,66,36.6,-121.89,60.8,3.36
borskoye,0,RU,1544041392,82,53.03,51.7,11.81,8.63
santa rosa,88,AR,1544041394,33,-36.62,-64.29,73.82,13.89
hami,0,CN,1544041394,39,42.84,93.51,-5.25,7.96
iqaluit,75,CA,1544040000,72,63.75,-68.52,12.2,2.24
pindwara,0,IN,1544041395,86,24.79,73.05,49.25,1.92
suntar,44,RU,1544041395,73,62.16,117.65,-24.42,7.18
burns lake,44,CA,1544041396,100,54.23,-125.76,11.18,2.93
ugoofaaru,64,MV,1544041396,100,5.67,73.0,82.01,4.05
santa cruz del sur,8,CU,1544041396,73,20.71,-78.0,81.83,7.4
jinji,92,CN,1544041396,99,22.16,112.49,69.5,3.49
lagoa,0,PT,1544038200,93,37.14,-8.45,57.2,2.24
hervey bay,40,AU,1544040000,83,-25.3,152.85,69.8,11.41
bambous virieux,40,MU,1544040000,88,-20.34,57.76,77.0,4.7
cherskiy,20,RU,1544041098,44,68.75,161.3,-27.75,2.71
saint-francois,0,FR,1544038200,93,46.42,3.91,46.4,4.83
rosario,12,UY,1544041399,47,-34.31,-57.35,69.95,13.89
chimbote,0,PE,1544041399,73,-9.08,-78.59,71.3,7.96
vila,92,IT,1544039400,93,45.18,8.4,42.8,3.36
mikuni,75,JP,1544040000,100,36.22,136.15,39.2,1.12
ingham,92,AU,1544041400,100,-18.65,146.16,73.1,9.64
vestmannaeyjar,76,IS,1544041400,100,63.44,-20.27,38.72,26.08
constantine,0,DZ,1544038200,76,36.36,6.61,51.8,2.24
baton rouge,1,US,1544039880,38,30.45,-91.15,57.74,6.93
jalu,0,LY,1544041401,88,29.03,21.55,58.38,9.86
cockburn town,75,TC,1544036400,66,21.46,-71.14,86.0,6.93
tiganesti,92,RO,1544041402,100,43.9,25.37,34.44,3.04
indiana,75,US,1544041200,92,40.62,-79.15,30.2,5.82
broome,75,GB,1544039820,100,52.47,1.45,53.6,10.29
kailua,75,US,1544039820,60,21.39,-157.74,80.06,12.75
sao joao da barra,20,BR,1544040000,62,-21.64,-41.05,84.2,16.11
kishtwar,56,IN,1544041403,82,33.31,75.77,25.58,1.7
xining,56,CN,1544041350,25,36.62,101.77,26.43,11.21
afzalpur,0,IN,1544041404,98,17.2,76.36,66.84,5.5
geraldton,90,CA,1544040000,85,49.72,-86.95,21.2,5.82
la ronge,20,CA,1544040000,76,55.1,-105.3,-4.01,3.36
rongcheng,44,CN,1544041405,100,37.16,122.42,27.02,5.17
abnub,40,EG,1544036400,59,27.27,31.15,64.4,16.11
yeppoon,75,AU,1544040000,78,-23.13,150.74,71.6,10.29
portel,76,PT,1544036400,100,38.31,-7.71,51.8,3.36
cuddapah,92,IN,1544041406,99,14.47,78.82,71.79,3.38
cabo san lucas,20,MX,1544039400,69,22.89,-109.91,80.6,11.41
maltahohe,0,NA,1544041447,37,-24.83,16.98,59.73,6.73
port augusta,0,AU,1544040000,39,-32.49,137.76,64.4,5.82
ajdabiya,68,LY,1544041448,91,30.75,20.22,53.88,8.97
aklavik,40,CA,1544040000,85,68.22,-135.01,10.4,4.7
nanortalik,56,GL,1544041449,82,60.14,-45.24,34.17,43.87
banjar,68,ID,1544041449,97,-7.37,108.54,70.85,2.48
santa isabel do rio negro,32,BR,1544041449,77,-0.41,-65.02,84.75,3.38
evensk,80,RU,1544041450,100,61.92,159.24,11.27,28.88
yangjiang,92,CN,1544041450,99,21.85,111.96,73.82,11.65
chara,20,GR,1544035800,45,39.42,22.43,50.0,4.7
paka,0,HR,1544040000,92,45.29,18.06,30.2,6.93
sovetskiy,76,RU,1544041451,90,56.76,48.47,20.72,8.63
black river,20,JM,1544040000,70,18.03,-77.85,84.2,8.05
bela,36,PK,1544041452,36,26.23,66.31,51.72,5.73
chapais,90,CA,1544040240,85,49.78,-74.86,14.0,9.17
bama,48,CN,1544041452,94,24.14,107.25,65.27,4.83
imbituba,20,BR,1544040000,69,-28.24,-48.67,73.4,16.11
ambunti,88,PG,1544041453,99,-4.22,142.82,76.2,2.48
lavrentiya,80,RU,1544041454,100,65.58,-170.99,23.28,28.21
caconda,24,AO,1544041454,97,-13.73,15.06,61.58,4.16
gonc,0,HU,1544040000,74,48.47,21.28,30.2,8.05
kinablangan,92,PH,1544041455,100,7.69,126.55,77.1,5.17
setermoen,40,NO,1544039400,100,68.86,18.35,24.8,16.11
cidreira,0,BR,1544041455,64,-30.17,-50.22,72.2,12.21
guarapari,20,BR,1544040000,78,-20.67,-40.5,82.4,11.41
guarare,40,PA,1544040000,62,7.82,-80.28,87.8,10.29
moose factory,90,CA,1544040000,79,51.26,-80.61,26.6,9.17
sembakung,44,ID,1544041456,97,3.82,117.25,74.94,2.37
saltpond,8,GH,1544041457,83,5.2,-1.06,76.74,4.5
praia da vitoria,20,PT,1544036400,72,38.73,-27.07,60.8,18.03
pochutla,75,MX,1544039700,70,15.74,-96.47,86.0,6.93
pak phanang,64,TH,1544041457,100,8.35,100.2,80.12,4.38
kununurra,12,AU,1544040000,94,-15.77,128.74,78.8,2.71
pacific grove,90,US,1544039700,66,36.62,-121.92,60.8,3.36
sikonge,40,TZ,1544036400,94,-5.63,32.75,68.0,9.17
verkhoyansk,20,RU,1544041458,0,67.55,133.39,-46.65,2.26
nacala,12,MZ,1544041459,92,-14.56,40.69,82.1,7.07
chinhoyi,64,ZW,1544041459,88,-17.36,30.19,66.08,13.33
khammam,88,IN,1544041365,97,17.25,80.15,69.0,2.93
vanimo,56,PG,1544041460,100,-2.67,141.3,82.1,8.63
port macquarie,92,AU,1544040000,88,-31.43,152.91,66.2,3.36
lata,44,IN,1544041461,97,30.78,78.62,35.7,1.36
samoded,92,RU,1544041461,91,63.61,40.52,33.99,8.86
sabirabad,40,AZ,1544040000,100,40.01,48.48,44.6,4.7
mosquera,40,CO,1544040000,55,4.71,-74.23,64.4,14.99
yenagoa,0,NG,1544041462,81,4.92,6.26,78.77,7.52
karaton,40,ID,1544040000,88,-6.34,106.1,77.0,2.24
jacmel,20,HT,1544040000,55,18.24,-72.54,87.8,9.17
hambantota,92,LK,1544041462,100,6.12,81.12,77.87,6.06
saint-pierre,0,FR,1544040000,87,48.95,4.24,51.8,13.87
daru,24,SL,1544041464,78,7.99,-10.85,77.73,7.4
vilnius,40,LT,1544039400,87,54.69,25.28,32.0,6.93
high level,64,CA,1544041507,83,58.52,-117.13,15.41,3.38
san patricio,0,PY,1544041507,70,-26.98,-56.83,84.53,2.37
shingu,8,JP,1544041508,100,33.72,135.99,60.32,5.5
cariati,0,IT,1544035800,76,39.5,16.95,51.8,5.82
sassandra,20,CI,1544041508,97,4.95,-6.09,83.94,8.97
dzhebariki-khaya,32,RU,1544041509,86,62.22,135.8,-40.13,2.82
lodi,75,IT,1544039400,87,45.31,9.5,48.2,4.7
voh,88,NC,1544041510,100,-20.95,164.69,75.17,14.79
antalaha,64,MG,1544041510,95,-14.9,50.28,75.75,6.29
baykit,48,RU,1544041510,79,61.68,96.39,-38.82,2.82
nicoya,20,CR,1544040000,49,10.15,-85.45,89.6,16.11
calama,0,CL,1544040000,4,-22.46,-68.93,73.4,18.34
aksum,0,ET,1544041511,75,14.12,38.72,50.55,2.37
los llanos de aridane,0,ES,1544040000,37,28.66,-17.92,69.8,5.82
jega,0,NG,1544041512,28,12.22,4.38,73.1,9.98
shwebo,8,MM,1544041512,86,22.57,95.7,60.68,5.39
lahat,80,ID,1544041512,97,-3.78,103.55,73.05,3.15
ibanda,32,UG,1544041513,91,0.33,30.08,62.57,1.7
waipawa,48,NZ,1544041513,64,-39.94,176.59,59.37,11.1
oktyabrskiy,90,RU,1544040000,92,55.61,37.97,30.2,6.71
rovaniemi,75,FI,1544039400,100,66.5,25.72,23.0,6.93
luganville,92,VU,1544041514,100,-15.51,167.18,78.54,9.08
lagos,20,NG,1544036400,83,6.46,3.39,84.2,3.36
algeciras,40,ES,1544040000,87,36.13,-5.45,60.8,2.24
laguna,90,MX,1544038920,33,27.52,-110.01,77.0,4.7
fare,56,PF,1544041520,100,-16.7,-151.02,79.58,9.42
chalmette,1,US,1544040900,44,29.94,-89.96,59.0,8.05
khuzhir,44,RU,1544041521,100,53.19,107.35,-26.67,8.86
roald,75,NO,1544039400,80,62.58,6.12,35.6,5.82
saint-augustin,90,FR,1544040000,93,44.83,-0.61,55.4,6.93
coihaique,20,CL,1544040000,33,-45.58,-72.07,77.0,6.93
merrill,1,US,1544039580,66,42.03,-121.6,33.98,6.93
coracora,0,PE,1544041523,18,-15.02,-73.78,59.42,4.38
ocampo,80,PH,1544041523,96,13.56,123.37,79.08,12.77
pontianak,88,ID,1544041523,100,-0.02,109.34,75.71,3.38
puerto escondido,75,MX,1544039700,70,15.86,-97.07,86.0,6.93
banda aceh,76,ID,1544041505,100,5.56,95.32,74.58,2.82
alexandria,1,US,1544040900,39,31.31,-92.44,56.3,5.82
roma,20,IT,1544039400,87,41.89,12.48,53.6,4.7
yinchuan,80,CN,1544041525,33,38.48,106.21,11.67,6.51
koygorodok,92,RU,1544041525,86,60.44,51.01,24.68,6.4
srednekolymsk,20,RU,1544041525,65,67.46,153.71,-34.82,3.15
faanui,12,PF,1544041526,100,-16.48,-151.75,80.21,11.77
ucluelet,5,CA,1544040000,65,48.94,-125.55,41.0,2.24
kampot,40,KH,1544040000,88,10.62,104.18,78.8,1.7
miracatu,0,BR,1544041526,48,-24.28,-47.45,77.78,5.39
liverpool,90,GB,1544039400,93,53.41,-2.98,51.8,10.29
abdulino,12,RU,1544041527,64,53.68,53.66,11.4,7.07
hobyo,92,SO,1544041527,87,5.35,48.53,80.03,13.22
subiaco,75,AU,1544040000,77,-31.95,115.83,59.0,14.99
marseille,0,FR,1544040000,87,43.3,5.37,55.4,3.36
santa cruz verapaz,0,GT,1544041528,76,15.37,-90.43,75.03,2.59
igarka,76,RU,1544041528,65,67.47,86.57,-21.59,20.04
taos,1,US,1544039760,27,36.41,-105.57,42.08,10.29
shelburne,75,CA,1544040000,71,44.08,-80.2,33.8,5.82
college,90,US,1544039880,95,64.86,-147.8,21.02,5.39
leh,68,IN,1544041567,59,34.16,77.58,-17.13,1.48
moerai,76,PF,1544041567,100,-22.43,-151.33,76.83,14.0
fairlie,1,US,1544039760,52,33.31,-95.96,54.32,5.82
brae,36,GB,1544039400,100,60.4,-1.35,41.0,9.17
straumen,75,NO,1544039400,86,63.87,11.3,35.6,14.99
camacha,20,PT,1544038200,82,33.08,-16.33,68.0,13.87
ornskoldsvik,0,SE,1544039400,74,63.29,18.72,30.2,18.34
nizhniy kuranakh,48,RU,1544041569,43,58.84,125.49,-28.52,5.73
parambu,92,BR,1544041569,96,-6.21,-40.7,69.23,7.96
yar-sale,88,RU,1544041569,91,66.83,70.83,19.5,13.22
merauke,24,ID,1544041484,96,-8.49,140.4,82.5,7.4
mmathubudukwane,0,BW,1544040000,18,-24.61,26.43,87.8,9.17
pechenga,92,RU,1544041570,91,58.89,41.46,28.73,14.0
dauriya,20,RU,1544041571,57,49.93,116.85,-21.23,7.96
poum,0,MK,1544041571,84,41.28,20.71,18.47,1.48
belen,75,TR,1544039400,93,36.49,36.19,55.4,9.17
sioux lookout,90,CA,1544041140,85,50.1,-91.92,17.6,8.05
kuznechnoye,64,RU,1544041572,89,61.12,29.87,33.23,11.43
antofagasta,0,CL,1544040000,52,-23.65,-70.4,69.8,16.11
tres arroyos,92,AR,1544041573,60,-38.38,-60.28,61.89,14.79
borazjan,0,IR,1544040000,77,29.27,51.21,68.0,4.7
chimore,76,BO,1544041573,72,-16.98,-65.13,82.91,3.71
tura,80,IN,1544041573,88,25.52,90.21,57.98,2.15
kiama,40,AU,1544040000,87,-34.67,150.86,60.8,4.7
tomball,1,US,1544040900,23,30.1,-95.62,60.8,3.36
portland,20,US,1544039580,48,45.52,-122.67,48.02,31.09
tecolutla,88,MX,1544041575,57,17.31,-98.74,74.4,2.26
dongsheng,92,CN,1544041575,98,29.72,112.52,41.51,17.81
aksarka,80,RU,1544041576,92,66.56,67.8,15.5,3.94
sumter,40,US,1544040240,34,33.92,-80.34,51.8,12.75
zamosc,40,PL,1544040000,100,50.72,23.25,30.2,4.7
altay,0,CN,1544041576,50,47.83,88.13,-33.87,2.26
kozhva,92,RU,1544041577,87,65.11,57.05,23.64,7.74
ca mau,12,VN,1544041577,92,9.18,105.15,79.53,10.76
hirara,88,JP,1544041578,100,24.8,125.28,76.02,9.42
riyadh,0,SA,1544040000,42,24.63,46.72,64.4,3.36
bara,0,NG,1544041578,26,10.41,10.6,74.58,11.99
grindavik,75,IS,1544040000,80,63.84,-22.43,37.4,13.87
jambi,80,ID,1544041579,98,-1.6,103.62,74.67,2.93
kasama,76,ZM,1544041579,98,-10.21,31.19,62.93,2.59
baoqing,0,CN,1544041580,64,46.32,132.2,-8.36,2.93
bembereke,0,BJ,1544041580,29,10.23,2.66,74.13,8.97
whitecourt,90,CA,1544040000,85,54.14,-115.68,19.4,3.36
la reforma,20,GT,1544040000,49,14.8,-91.82,91.4,6.93
ovalle,0,CL,1544041582,62,-30.6,-71.2,68.87,4.16
williams lake,90,CA,1544040000,85,52.13,-122.14,15.8,2.71
phan thiet,0,VN,1544041582,98,10.93,108.1,77.87,10.65
luis correia,40,BR,1544040000,62,-2.88,-41.67,84.2,8.05
lufilufi,75,WS,1544036400,66,-13.87,-171.6,84.2,5.82
terekli-mekteb,92,RU,1544041583,98,44.16,45.87,41.37,3.94
abomey,0,BJ,1544041583,43,7.18,1.99,79.4,5.39
mocuba,12,MZ,1544041584,62,-16.84,36.99,82.32,3.71
sao felix do xingu,80,BR,1544041584,83,-6.64,-51.99,81.78,1.7
mogwase,8,ZA,1544041584,53,-25.28,27.22,72.38,6.17
tezu,88,IN,1544041627,68,27.93,96.16,52.44,1.59
ilebo,8,CD,1544041627,92,-4.33,20.59,75.8,2.04
zyryanka,44,RU,1544041627,46,65.73,150.89,-28.34,5.84
soe,24,EE,1544039400,74,57.91,26.05,35.6,16.11
impfondo,44,CD,1544041628,98,1.62,18.06,72.65,1.92
abha,0,SA,1544036400,87,18.22,42.5,59.0,4.7
teguldet,8,RU,1544041628,0,57.31,88.17,-40.35,2.59
longyearbyen,75,NO,1544039400,95,78.22,15.63,32.0,3.36
carutapera,92,BR,1544041629,95,-1.2,-46.02,77.55,1.14
beringovskiy,0,RU,1544041629,100,63.05,179.32,-7.68,22.06
manavalakurichi,20,IN,1544040000,88,8.13,77.3,80.6,3.36
cristalina,64,BR,1544041630,86,-16.77,-47.61,77.06,3.27
lombardia,40,CO,1544040000,61,4.81,-75.68,77.0,4.7
tosham,0,IN,1544041631,82,28.87,75.92,48.35,2.82
guanica,90,PR,1544039400,97,17.97,-66.91,80.6,9.17
balkanabat,68,TM,1544041632,91,39.51,54.36,43.62,5.17
mabaruma,100,GY,1544041632,83,8.2,-59.78,79.31,7.85
akureyri,20,IS,1544041633,58,65.68,-18.09,-3.23,1.81
sangre grande,20,TT,1544040000,70,10.59,-61.13,84.2,13.87
lindsay,75,CA,1544040000,80,44.36,-78.74,32.0,4.7
bilma,76,NE,1544041634,40,18.69,12.92,59.37,4.72
